[
    {
        "lat": 55.660186,
        "lng": 12.543522,
        "name": "ALL YOU NEED iS LESS OF EVERYTHiNG",
        "authors": ["SPYO"],
        "image": "static/images/all-you-need-is-less-of-everything.jpg"
    },
    {
        "lat": 55.659767,
        "lng": 12.552625,
        "name": "APARNAGE TIL ALLE!! SLUK FOR DE RiGES PRiViLEGiER!",
        "authors": ["SPYO"],
        "image": "static/images/aparnage-til-alle....jpg"
    },
    {
        "lat": 55.655789,
        "lng": 12.540328,
        "name": "ARTiSTiC iNTEGRiTY YOU ARE ABOUt tO BECOME PRiVAtiZED AS StAtE GOVERMENt PROPERtY (iM DYSLEXiC)",
        "authors": ["SPYO"],
        "image": "static/images/artistic-integrity-you-are....jpg"
    },
    {
        "lat": 55.654025,
        "lng": 12.535908,
        "name": "NON SERViAM",
        "authors": ["SPYO"],
        "image": "static/images/birdsfmk-spyo-non-serviam.jpg"
    },
    {
        "lat": 55.657492,
        "lng": 12.556389,
        "name": "BRÆND LORTET AF!",
        "authors": ["SPYO"],
        "image": "static/images/braend-lortet-af.jpg"
    },
    {
        "lat": 55.695297,
        "lng": 12.533322,
        "name": "CAPiTALiSM HAS NO DEMOCRACY",
        "authors": ["SPYO"],
        "image": "static/images/capitalism-has-no-democracy.jpg"
    },
    {
        "lat": 55.654594,
        "lng": 12.517883,
        "name": "CAPiTALiSM iS SHORT-TERMED",
        "authors": ["SPYO"],
        "image": "static/images/capitalism-is-short-termed.jpg"
    },
    {
        "lat": 55.686744,
        "lng": 12.560272,
        "name": "CAPiTALiSTiC DEMOCRACY",
        "authors": ["SPYO"],
        "image": "static/images/capitalistic-democracy.jpg"
},
    {
        "lat": 55.683669,
        "lng": 12.563781,
        "name": "CHR.BORG=PARADiSE HOTEL",
        "authors": ["SPYO", "SAZER"],
        "image": "static/images/chr.borg-er-lig-paradise-hotel.jpg"
    },
    {
        "lat": 55.690506,
        "lng": 12.55555,
        "name": "COMMUNiCATiNG THRU WALLS...",
        "authors": ["SPYO"],
        "image": "./static/images/communicating-thru-walls....jpg"
    },
    {
        "lat": 55.711808,
        "lng": 12.553769,
        "name": "CORPORATE GREED BURN iN HELL!",
        "authors": ["SPYO"],
        "image": "static/images/corporate-greed-burn-in-hell.jpg"
    },
    {
       "lat": 55.686508,
        "lng": 12.551256,
        "name": "CORPORATE GREED STiNKS!",
        "authors": ["SPYO"],
        "image": "static/images/corporate-greed-stinks.jpg"
    },
    {
        "lat": 55.686564,
        "lng": 12.551086,
        "name": "CORPORATiZED DEMOCRACY",
        "authors": ["SPYO", "KURD1"],
        "image": "static/images/politiciansucks.jpg"
    },
    {
        "lat": 55.685839,
        "lng": 12.555461,
        "name": "CRiMEFiGHTERS!",
        "authors": ["SPYO", "DEPON"],
        "image": "static/images/crimefighters.jpg"
    },
    {
        "lat": 55.693908,
        "lng": 12.547853,
        "name": "DE MAGtFULDES DÆMONKRAti",
        "authors": ["SPYO"],
        "image": "static/images/de-magtfuldes-daemonkrati.jpg"
    },
    {
        "lat": 55.668254,
        "lng": 12.541757,
        "name": "DEt SKA CHEFEN iK BE OM!",
        "authors": ["SPYO"],
        "image": "static/images/det-ska-chefen-ik-be-om.jpg"
    },
    {
        "lat": 55.668868,
        "lng": 12.543589,
        "name": "DIAGNOSE",
        "authors": ["SPYO"],
        "image": "static/images/diagnose.jpg"
    },
    {
        "lat": 55.712058,
        "lng": 12.552917,
        "name": "DiGiTALiSEREt KVÆG",
        "authors": [ "SPYO"],
        "image": "static/images/digitaliseret-kvaeg.jpg"
    },
    {
        "lat": 55.692503,
        "lng": 12.551478,
        "name": "DinE PEnGE MiG i RØVEn",
        "authors": ["SPYO"],
        "image": "static/images/dine-penge-mig-i-roeven.jpg"
    },
    {
        "lat": 55.668825,
        "lng": 12.543654,
        "name": "DiNE PrObLEMEr HAr iNGEN PrObLEMEr",
        "authors": ["SPYO"],
        "image": "static/images/dine-problemer-har-ingen-problemer.jpg"
    },
    {
        "lat": 55.655769,
        "lng": 12.538344,
        "name": "DU ER BANKENS LiLLE SKØDEHUND",
        "authors": ["SPYO"],
        "image": "static/images/du-er-bankens-lille-skoedehund.jpg"
    },
    {
        "lat": 55.653962,
        "lng": 12.535835,
        "name": "EAT THE RiCH!",
        "authors": ["SPYO"],
        "image": "static/images/eat-the-rich.jpg"
    },
    {
        "lat": 55.664269,
        "lng": 12.576508,
        "name": "ER PENGE DYNAMiSKE",
        "authors": ["SPYO"],
        "image": "static/images/er-penge-dynamiske.jpg"
    },
    {
        "lat": 55.686872,
        "lng": 12.551217,
        "name": "EUROPE BUiLD ON COLONiALiSM",
        "authors": ["SPYO"],
        "image": "static/images/europe-build-on-colonialism.jpg"
    },
    {
        "lat": 55.667844,
        "lng": 12.553230, 
        "name": "EVErYBODY WANTS TO BE AN ArTiST",
        "authors": ["SPYO"],
        "image": "static/images/everybody-wants-to-be-an-artist.jpg"
    }, 
    {
        "lat": 55.698572,
        "lng": 12.535864,
        "name": "FAtNESS WORLD",
        "authors": ["SPYO"],
        "image": "static/images/fatness-world.jpg"
    },
    {
        "lat": 55.657069,
        "lng": 12.555044,
        "name": "FORBRUGSFESTEN",
        "authors": ["SPYO"],
        "image": "static/images/forbrugsfesten.jpg"
    },
    {
        "lat": 55.684922,
        "lng": 12.555394,
        "name": "FREE PALESTiNE",
        "authors": ["SPYO"],
        "image": "static/images/free-palestine.jpg"
    },
    {
        "lat": 55.686819,
        "lng": 12.551469,
        "name": "FUCK FASCISM",
        "authors": ["SPYO", "SAZER"],
        "image": "static/images/kbhs-kommune-din-kaerlige-krykstok.jpg"
    },
    {
        "lat": 55.685536,
        "lng": 12.559842,
        "name": "GAZA",
        "authors": ["SPYO", "PUM"],
        "image": "static/images/gaza.jpg"
    },
    {
        "lat": 55.657069,
        "lng": 12.555044,
        "name": "GOVERMENT LiES!",
        "authors": ["SPYO"],
        "image": "static/images/goverment-lies.jpg"
    },
    {
        "lat": 55.655267,
        "lng": 12.540433,
        "name": "GREENWASHING UR ASS WitH FiNANCiAL MORALiSM",
        "authors": ["SPYO"],
        "image": "static/images/greenwashing-ur-ass....jpg"
    },
    {
        "lat": 55.654089,
        "lng": 12.510417,
        "name": "GrETA THUNBErG",
        "authors": ["SPYO"],
        "image": "static/images/greta-thunberg.jpg"
    },
    {
        "lat": 55.702442,
        "lng": 12.543458,
        "name": "GRUNDSKYLD",
        "authors": ["SPYO"],
        "image": "static/images/grundskyld.jpg"
    },
    {
    "lat": 55.699464,
    "lng": 12.544803,
        "name": "GÆLD ER EN LiVSSTiL <3",
        "authors": ["SPYO"],
        "image": "static/images/gaeld-er-en-livsstil.jpg"
    },
    {
        "lat": 55.695747,
        "lng": 12.532172,
        "name": "HANNE REUMERT ILDSjÆL",
        "authors": ["SPYO"],
        "image": "static/images/hanne-reumert-ildsjael.jpg"
    },
    {
        "lat": 55.652508,
        "lng": 12.516631,
        "name": "HiSTORiELØST SAMFUND",
        "authors": ["SPYO"],
        "image": "./static/images/historieloest-samfund.jpg"
    },
    {
        "lat": 55.667302,
        "lng": 12.539762,
        "name": "HOVEDLØST OVERFOrBrUG",
        "authors": ["SPYO"],
        "image": "static/images/hovedloest-overforbrug.jpg"
    },
    {
        "lat": 55.683519,
        "lng": 12.564267,
        "name": "HVORFOR ER FRiHED iK EN GLOBAL RETTiGHED.",
        "authors": ["SPYO"],
        "image": "static/images/hvorfor-er-frihed-ik-en-global-rettighed.jpg"
    },
    {
        "lat": 55.686664,
        "lng": 12.551086,
        "name": "HViD SKRØBELiGHED",
        "authors": ["SPYO"],
        "image": "static/images/hvid-skroebelighed.jpg"
    },
    {
        "lat": 55.666580,
        "lng": 12.550174,
        "name": "iM GAY",
        "authors": ["SPYO"],
        "image": "static/images/im-gay.jpg"
    },
    {
        "lat": 55.66335,
        "lng": 12.536819,
        "name": "iMPERiALiSTiC MiNDFULNESS",
        "authors": ["SPYO", "DEPON"],
        "image": "static/images/imperialistic-mindfulness.jpg"
    },
    {
        "lat": 55.696828,
        "lng": 12.546869,
        "name": "jEG ER SÆRDELES OMSTiLLiNGSPARAT",
        "authors": ["SPYO"],
        "image": "static/images/jeg-er-saerdeles-omstillingsparat.jpg"
    },
    {
        "lat": 55.683681,
        "lng": 12.564467,
        "name": "jEG FORBLEV i NARNiASKABET",
        "authors": ["SPYO", "SAZER"],
        "image": "static/images/jeg-forblev-i-narniaskabet.jpg"
    },
    {
        "lat": 55.698394,
        "lng": 12.544128,
        "name": "jOB NOGET DER SKA PASSES!",
        "authors": ["SPYO"],
        "image": "static/images/job-noget-der-ska-passes.jpg"
    },
    {
        "lat": 55.692183,
        "lng": 12.556647,
        "name": "jYDERESERVAT",
        "authors": ["SPYO"],
        "image": "static/images/jydereservat.jpg"
    },
    {
        "lat": 55.667409,
        "lng": 12.539276,
        "name": "KAPiTALEN ER BEGEJSTRET",
        "authors": ["SPYO"],
        "image": "static/images/kapitalen-er-begejstret.jpg"
    },
    {
        "lat": 55.686819,
        "lng": 12.551469,
        "name": "KBHS-KOMMUNE DiN KÆRLIGE KRYKSTOK",
        "authors": ["SPYO"],
        "image": "static/images/kbhs-kommune-din-kaerlige-krykstok.jpg"
    },
    {
        "lat": 55.659050,
        "lng": 12.543878,
        "name": "KUNSt&KULtUR FUNGERE BEDSt UNDER ORDNEDE FORHOLD, HiLSEN StAt&KOMMUNE",
        "authors": ["SPYO"],
        "image": "static/images/kunst-og-kultur-fungere-bedst....jpg"
    },
    {
        "lat": 55.669817,
        "lng": 12.551470,
        "name": "KØb MER!",
        "authors": ["SPYO"],
        "image": "static/images/koeb-mer.jpg"
    },
    {
        "lat": 55.685906,
        "lng": 12.560081,
        "name": "LANDSFORRÆDER BjARNE CORYDON",
        "authors": ["SPYO"],
        "image": "static/images/landsforraeder-bjarne-corydon.jpg"
    },
    {
        "lat": 55.686175,
        "lng": 12.560594,
        "name": "LEAVE NOONE BEHIND",
        "authors": ["SPYO"],
        "image": "static/images/leave-noone-behind.jpg"
    },
    {
        "lat": 55.686564,
        "lng": 12.551086,
        "name": "LETS ALL jUST BE NORMAL",
        "authors": ["SPYO"],
        "image": "static/images/politiciansucks.jpg"
    },
    {
        "lat": 55.684878,
        "lng": 12.554564,
        "name": "MANGFOLDiGHED NU!",
        "authors": ["SPYO"],
        "image": "static/images/mangfoldighed-nu.jpg"
    },
    {
        "lat": 55.662946,
        "lng": 12.575752,
        "name": "MEDMENNESKELiGHED",
        "authors": ["SPYO"],
        "image": "static/images/medmenneskelighed.jpg"
    },
    {
        "lat": 55.654961,
        "lng": 12.520164,
        "name": "MENNESKET FØR PrOFiT",
        "authors": ["SPYO"],
        "image": "static/images/mennesket-foer-profit.jpg"
    },
    {
        "lat": 55.655633,
        "lng": 12.539511,
        "name": "NE TRAVAiLLEZ jAMAiS",
        "authors": ["SPYO"],
        "image": "static/images/ne-traveillez-jamaiz.jpg"
    },
    {
        "lat": 55.639513,
        "lng": 12.550421,
        "name": "NEj TAK TiL ROTTERÆSET",
        "authors": ["SPYO", "SULT", "WHO"],
        "image": "static/images/nej-tak-til-rotteraeset.jpg"
    },
    {
        "lat": 55.650236,
        "lng": 12.511519,
        "name": "NEOCOLONiALiSM STiLL GOiNG ON",
        "authors": ["SPYO", "SULT"],
        "image": "static/images/neocolonialism-still-going-on.jpg"
    },
    {
        "lat": 55.654581,
        "lng": 12.517139,
        "name": "NO JOB MORE LiFE",
        "authors": ["SPYO"],
        "image": "static/images/no-job-more-life.jpg"
    },
    {
        "lat": 55.698986,
        "lng": 12.536356,
        "name": "NORMEN TRIVES",
        "authors": ["SPYO"],
        "image": "static/images/normen-trives.jpg"
    },
    {
        "lat": 55.711875,
        "lng": 12.553503,
        "name": "OUTRAGED",
        "authors": ["SPYO"],
        "image": "static/images/outraged.jpg"
    },
    {
        "lat": 55.702919,
        "lng": 12.543353,
        "name": "PALESTINE WILL BE FREE",
        "authors": ["SPYO"],
        "image": "static/images/palestine-will-be-free.jpg"
    },
    {
        "lat": 55.685269,
        "lng": 12.554536,
        "name": "PASiV iNDKOMST",
        "authors": ["SPYO", "TESM"],
        "image": "static/images/pasiv-indkomst.jpg"
    },
    {
        "lat": 55.655992,
        "lng": 12.538383,
        "name": "POLiTiCALLY ORGANiSED DENiAL! :(",
        "authors": ["SPYO"],
        "image": "static/images/politically-organised-denial.jpg"
    },
    {
        "lat": 55.686564,
        "lng": 12.551086,
        "name": "POLItICIAnSUCKS",
        "authors": ["SPYO"],
        "image": "static/images/politiciansucks.jpg"
    },
    {
        "lat": 55.670386,
        "lng": 12.538222,
        "name": "POLiTiK=PØLs",
        "authors": ["SPYO"],
        "image": "static/images/politik-er-lig-poels.jpg"
    },
    {
        "lat": 55.690506,
        "lng": 12.55555,
        "name": "PSEUDO DiT LiV ER RØV SKOD",
        "authors": ["SPYO"],
        "image": "./static/images/pseudo-dit-liv-er-roev-skod.jpg"
    },
    {
        "lat": 55.698511,
        "lng": 12.543947,
        "name": "SASS DEN OP FRA SLAP",
        "authors": ["SPYO"],
        "image": "static/images/sass-den-op-fra-slap.jpg"
    },
    {
        "lat": 55.660589,
        "lng": 12.514628,
        "name": "SELVCENTER'D",
        "authors": ["SPYO"],
        "image": "./static/images/selvcenterd.jpg"
    },
    {
        "lat": 55.697795,
        "lng": 12.541347,
        "name": "SELVFED-ISME",
        "authors": ["SPYO"],
        "image": "static/images/selvfed-isme.jpg"
    },
    {
        "lat": 55.685128,
        "lng": 12.559483,
        "name": "SMÅFACiSTiSK LEDELSE",
        "authors": ["SPYO"],
        "image": "static/images/smaafacistisk-ledelse.jpg"
    },
    {
        "lat": 55.650836,
        "lng": 12.511331,
        "name": "SMÅFACiSTiSK OG KULTURLØST",
        "authors": ["SPYO"],
        "image": "static/images/smaafacistist-og-kulturloest.jpg"
    },
    {
        "lat": 55.686511,
        "lng": 12.551422,
        "name": "STADiG UDEN E-BOKS OG NEM iD",
        "authors": ["SPYO"],
        "image": "static/images/stadig-uden-e-boks-og-nem-id.jpg"
    },
    {
        "lat": 55.686894,
        "lng": 12.551008,
        "name": "STOP MAKiNG RiCH PEOPLE iMPORTANT",
        "authors": ["SPYO"],
        "image": "static/images/stop-making-rich-people-important.jpg"
    },
    {
        "lat": 55.655578,
        "lng": 12.540731,
        "name": "STRUKTUREL FATTiGDOM",
        "authors": ["SPYO"],
        "image": "static/images/strukturel-fattigdom.jpg"
    },
    {
        "lat": 55.668428,
        "lng": 12.542317,
        "name": "TAK MAGtHAVERNE.. FOR At HOLDE DiG BESKÆFtiGEt",
        "authors": ["SPYO"],
        "image": "./static/images/tak-magthaverne..-for-at-holde-dig-beskaeftiget.jpg"
    },
    {
        "lat": 55.652681,
        "lng": 12.515906,
        "name": "THiS MAY NOT REFLECT REAL LiVE SiTUATiONS",
        "authors": ["SPYO"],
        "image": "./static/images/this-may-not-reflect-real-live-situations.jpg"
    },
    {
        "lat": 55.660000,
        "lng": 12.553628,
        "name": "TRESPASSERS WiLL BE ACKNOWLEDGED CHERiSHED AND APPLAUDED-IN THE END SALUTED",
        "authors": ["SPYO"],
        "image": "static/images/trespassers-will-be-acknowledged....jpg"
    },
    {
        "lat": 55.695683,
        "lng": 12.531800,
        "name": "TRY PRiVATiZiNG THiS",
        "authors": ["SPYO"],
        "image": "static/images/try-privatizing-this.jpg"
    },
    {
        "lat": 55.686564,
        "lng": 12.551086,
        "name": "UPARLAMENTARiSK ÅNDEHUL",
        "authors": ["SPYO", "KURD1"],
        "image": "static/images/politiciansucks.jpg"
    }
]
