[
    {
        "lat": 55.660186,
        "lng": 12.543522,
        "name": "ALL YOU NEED iS LESS OF EVERYTHiNG",
        "authors": ["SPYO"],
        "image": "static/images/all-you-need-is-less-of-everything.jpg"
    },
    {
        "lat": 55.659767,
        "lng": 12.552625,
        "name": "APARNAGE TIL ALLE!! SLUK FOR DE RiGES PRiViLEGiER!",
        "authors": ["SPYO"],
        "image": "static/images/aparnage-til-alle....jpg"
    },
    {
        "lat": 55.655789,
        "lng": 12.540328,
        "name": "ARTiSTiC iNTEGRiTY YOU ARE ABOUt tO BECOME PRiVAtiZED AS StAtE GOVERMENt PROPERtY (iM DYSLEXiC)",
        "authors": ["SPYO"],
        "image": "static/images/artistic-integrity-you-are....jpg"
    },
    {
        "lat": 55.654025,
        "lng": 12.535908,
        "name": "BIRDSFMK SPYO NON SERViAM",
        "authors": ["SPYO"],
        "image": "static/images/birdsfmk-spyo-non-serviam.jpg"
    },
    {
        "lat": 55.657492,
        "lng": 12.556389,
        "name": "BRÆND LORTET AF!",
        "authors": ["SPYO"],
        "image": "static/images/braend-lortet-af.jpg"
    },
    {
        "lat": 55.695297,
        "lng": 12.533322,
        "name": "CAPiTALiSM HAS NO DEMOCRACY",
        "authors": ["SPYO"],
        "image": "static/images/capitalism-has-no-democracy.jpg"
    },
    {
        "lat": 55.654594,
        "lng": 12.517883,
        "name": "CAPiTALiSM iS SHORT-TERMED",
        "authors": ["SPYO"],
        "image": "static/images/capitalism-is-short-termed.jpg"
    },
    {
        "lat": 55.690506,
        "lng": 12.55555,
        "name": "COMMUNiCATiNG THRU WALLS...",
        "authors": ["SPYO"],
        "image": "./static/images/communicating-thru-walls....jpg"
    },
    {
        "lat": 55.711808,
        "lng": 12.553769,
        "name": "CORPORATE GREED BURN iN HELL!",
        "authors": ["SPYO"],
        "image": "static/images/corporate-greed-burn-in-hell.jpg"
    },
    {
        "lat": 55.668254,
        "lng": 12.541757,
        "name": "DEt SKA CHEFEN iK BE OM!",
        "authors": ["SPYO"],
        "image": "static/images/det-ska-chefen-ik-be-om.jpg"
    },
    {
        "lat": 55.668868,
        "lng": 12.543589,
        "name": "DIAGNOSE",
        "authors": ["SPYO"],
        "image": "static/images/diagnose.jpg"
    },
    {
        "lat": 55.712058,
        "lng": 12.552917,
        "name": "DiGiTALiSEREt KVÆG",
        "authors": [ "SPYO"],
        "image": "static/images/digitaliseret-kvaeg.jpg"
    },
    {
        "lat": 55.668825,
        "lng": 12.543654,
        "name": "DiNE PrObLEMEr HAr iNGEN PrObLEMEr",
        "authors": ["SPYO"],
        "image": "static/images/dine-problemer-har-ingen-problemer.jpg"
    },
    {
        "lat": 55.655769,
        "lng": 12.538344,
        "name": "DU ER BANKENS LiLLE SKØDEHUND",
        "authors": ["SPYO"],
        "image": "static/images/du-er-bankens-lille-skoedehund.jpg"
    },
    {
        "lat": 55.667844,
        "lng": 12.553230, 
        "name": "EVErYBODY WANTS TO BE AN ArTiST",
        "authors": ["SPYO"],
        "image": "static/images/everybody-wants-to-be-an-artist.jpg"
    }, 
    {
        "lat": 55.698572,
        "lng": 12.535864,
        "name": "FAtNESS WORLD",
        "authors": ["SPYO"],
        "image": "static/images/fatness-world.jpg"
    },
    {
        "lat": 55.657069,
        "lng": 12.555044,
        "name": "FORBRUGSFESTEN",
        "authors": ["SPYO"],
        "image": "static/images/forbrugsfesten.jpg"
    },
    {
        "lat": 55.657069,
        "lng": 12.555044,
        "name": "GOVERMENT LiES!",
        "authors": ["SPYO"],
        "image": "static/images/goverment-lies.jpg"
    },
    {
        "lat": 55.655267,
        "lng": 12.540433,
        "name": "GREENWASHING UR ASS WitH FiNANCiAL MORALiSM",
        "authors": ["SPYO"],
        "image": "static/images/greenwashing-ur-ass....jpg"
    },
    {
        "lat": 55.702442,
        "lng": 12.543458,
        "name": "GRUNDSKYLD",
        "authors": ["SPYO"],
        "image": "static/images/grundskyld.jpg"
    },
    {
        "lat": 55.695747,
        "lng": 12.532172,
        "name": "HANNE REUMERT ILDSjÆL",
        "authors": ["SPYO"],
        "image": "static/images/hanne-reumert-ildsjael.jpg"
    },
    {
        "lat": 55.652508,
        "lng": 12.516631,
        "name": "HiSTORiELØST SAMFUND",
        "authors": ["SPYO"],
        "image": "./static/images/historieloest-samfund.jpg"
    },
    {
        "lat": 55.667302,
        "lng": 12.539762,
        "name": "HOVEDLØST OVERFOrBrUG",
        "authors": ["SPYO"],
        "image": "static/images/hovedloest-overforbrug.jpg"
    },
    {
        "lat": 55.666580,
        "lng": 12.550174,
        "name": "iM GAY",
        "authors": ["SPYO"],
        "image": "static/images/im-gay.jpg"
    },
    {
        "lat": 55.692183,
        "lng": 12.556647,
        "name": "jYDERESERVAT",
        "authors": ["SPYO"],
        "image": "static/images/jydereservat.jpg"
    },
    {
        "lat": 55.667409,
        "lng": 12.539276,
        "name": "KAPiTALEN ER BEGEJSTRET",
        "authors": ["SPYO"],
        "image": "static/images/kapitalen-er-begejstret.jpg"
    },
    {
        "lat": 55.659050,
        "lng": 12.543878,
        "name": "KUNSt&KULtUR FUNGERE BEDSt UNDER ORDNEDE FORHOLD, HiLSEN StAt&KOMMUNE",
        "authors": ["SPYO"],
        "image": "static/images/kunst-og-kultur-fungere-bedst....jpg"
    },
    {
        "lat": 55.669817,
        "lng": 12.551470,
        "name": "KØb MER!",
        "authors": ["SPYO"],
        "image": "static/images/koeb-mer.jpg"
    },
    {
        "lat": 55.654961,
        "lng": 12.520164,
        "name": "MENNESKET FØR PrOFiT",
        "authors": ["SPYO"],
        "image": "./static/images/mennesket-foer-profit.jpg"
    },
    {
        "lat": 55.655633,
        "lng": 12.539511,
        "name": "NE TRAVAiLLEZ jAMAiS",
        "authors": ["SPYO"],
        "image": "static/images/ne-traveillez-jamaiz.jpg"
    },
    {
        "lat": 55.654581,
        "lng": 12.517139,
        "name": "NO JOB MORE LiFE",
        "authors": ["SPYO"],
        "image": "static/images/no-job-more-life.jpg"
    },
    {
        "lat": 55.698986,
        "lng": 12.536356,
        "name": "NORMEN TRIVES",
        "authors": ["SPYO"],
        "image": "static/images/normen-trives.jpg"
    },
    {
        "lat": 55.711875,
        "lng": 12.553503,
        "name": "OUTRAGED",
        "authors": ["SPYO"],
        "image": "static/images/outraged.jpg"
    },
    {
        "lat": 55.702919,
        "lng": 12.543353,
        "name": "PALESTINE WILL BE FREE",
        "authors": ["SPYO"],
        "image": "static/images/palestine-will-be-free.jpg"
    },
    {
        "lat": 55.655992,
        "lng": 12.538383,
        "name": "POLiTiCALLY ORGANiSED DENiAL! :(",
        "authors": ["SPYO"],
        "image": "static/images/politically-organised-denial.jpg"
    },
    {
        "lat": 55.670386,
        "lng": 12.538222,
        "name": "POLiTiK=PØLs",
        "authors": ["SPYO"],
        "image": "static/images/politik-er-lig-poels.jpg"
    },
    {
        "lat": 55.690506,
        "lng": 12.55555,
        "name": "PSEUDO DiT LiV ER RØV SKOD",
        "authors": ["SPYO"],
        "image": "./static/images/pseudo-dit-liv-er-roev-skod.jpg"
    },
    {
        "lat": 55.660589,
        "lng": 12.514628,
        "name": "SELVCENTER'D",
        "authors": ["SPYO"],
        "image": "./static/images/selvcenterd.jpg"
    },
    {
        "lat": 55.697795,
        "lng": 12.541347,
        "name": "SELVFED-ISME",
        "authors": ["SPYO"],
        "image": "static/images/selvfed-isme.jpg"
    },
    {
        "lat": 55.655578,
        "lng": 12.540731,
        "name": "STRUKTUREL FATTiGDOM",
        "authors": ["SPYO"],
        "image": "static/images/strukturel-fattigdom.jpg"
    },
    {
        "lat": 55.668428,
        "lng": 12.542317,
        "name": "TAK MAGtHAVERNE.. FOR At HOLDE DiG BESKÆFtiGEt",
        "authors": ["SPYO"],
        "image": "./static/images/tak-magthaverne..-for-at-holde-dig-beskaeftiget.jpg"
    },
    {
        "lat": 55.652681,
        "lng": 12.515906,
        "name": "THiS MAY NOT REFLECT REAL LiVE SiTUATiONS",
        "authors": ["SPYO"],
        "image": "./static/images/this-may-not-reflect-real-live-situations.jpg"
    },
    {
        "lat": 55.660000,
        "lng": 12.553628,
        "name": "TRESPASSERS WiLL BE ACKNOWLEDGED CHERiSHED AND APPLAUDED-IN THE END SALUTED",
        "authors": ["SPYO"],
        "image": "static/images/trespassers-will-be-acknowledged....jpg"
    },
    {
        "lat": 55.695683,
        "lng": 12.531800,
        "name": "TRY PRiVATiZiNG THiS",
        "authors": ["SPYO"],
        "image": "static/images/try-privatizing-this.jpg"
    }
]
